[{"arla":3.68,"cnpj":"","dtNeg":"02/06/2026","gr":"","id":"kmm1","lat":-15.6798642336783,"lng":-56.1752280344806,"nome":"REDE DE POSTOS MARAJO CUIABA LTDA","obs":"","ref":"VARZEA GRANDE - MT","s10":6.64,"s500":6.64,"tel":"6239996262"},{"arla":3.58,"cnpj":"","dtNeg":"04/07/2026","gr":"","id":"kmm2","lat":-9.34131242184706,"lng":-50.3221544732669,"nome":"REDE DE POSTOS MARAJO SANTANA DO ARAGUAIA LTDA","obs":"","ref":"SANTANA DO ARAGUAIA - PA","s10":6.46,"s500":6.64,"tel":"6281760472"},{"arla":3.48,"cnpj":"","dtNeg":"04/07/2026","gr":"","id":"kmm3","lat":-11.905286923758,"lng":-49.1737726950216,"nome":"REDE DE POSTOS MARAJO TOCANTINS LTDA","obs":"","ref":"CARIRI DO TOCANTINS - TO","s10":6.44,"s500":6.44,"tel":"6239996262"},{"arla":3.58,"cnpj":"","dtNeg":"17/06/2026","gr":"","id":"kmm4","lat":-5.37812602450394,"lng":-49.0761402035362,"nome":"POSTO SANTA LUZIA TRES LTDA","obs":"","ref":"MARABA - PA","s10":6.98,"s500":6.87,"tel":"9492038687"},{"arla":2.63,"cnpj":"","dtNeg":"02/07/2026","gr":"","id":"kmm5","lat":-20.0417788695976,"lng":-51.1124778171833,"nome":"W L VISANI LTDA","obs":"","ref":"APARECIDA DO TABOADO - MS","s10":6.17,"s500":5.84,"tel":"6735651486"},{"arla":2.98,"cnpj":"","dtNeg":"03/07/2026","gr":"","id":"kmm6","lat":-15.9559696,"lng":-54.9751847,"nome":"J C R JACIARA O ESTRADEIRO LTDA","obs":"","ref":"JACIARA - MT","s10":6.38,"s500":6.09,"tel":"66999016162"},{"arla":2.97,"cnpj":"","dtNeg":"03/07/2026","gr":"","id":"kmm7","lat":-8.04476305658065,"lng":-50.0272030900514,"nome":"AUTO POSTO REDENCAO LTDA","obs":"","ref":"REDENCAO - PA","s10":6.44,"s500":6.38,"tel":"9491086806"},{"arla":2.98,"cnpj":"","dtNeg":"03/07/2026","gr":"","id":"kmm8","lat":-21.7035598016055,"lng":-48.3232219146197,"nome":"AUTO POSTO KAMBUI ARARAQUARA LTDA","obs":"","ref":"ARARAQUARA - SP","s10":6.28,"s500":5.88,"tel":"1633222250"},{"arla":3.98,"cnpj":"","dtNeg":"31/05/2026","gr":"","id":"kmm9","lat":-1.5856429,"lng":-48.5793583,"nome":"MIRIAN BARCARENA AUTO POSTO LTDA","obs":"","ref":"BARCARENA - PA","s10":6.63,"s500":null,"tel":"6999448193"},{"arla":3.48,"cnpj":"","dtNeg":"22/05/2026","gr":"","id":"kmm10","lat":-7.09628620608753,"lng":-49.9342044212071,"nome":"AUTO POSTO PRIMAVERA EIRELI","obs":"","ref":"XINGUARA - PA","s10":6.66,"s500":6.66,"tel":"9434261520"},{"arla":3.08,"cnpj":"","dtNeg":"23/06/2026","gr":"","id":"kmm11","lat":-20.4481057947697,"lng":-49.2823146200338,"nome":"AUTO POSTO SERTANEJO DO KM 18 LTDA","obs":"","ref":"NOVA GRANADA - SP","s10":6.33,"s500":6.01,"tel":"17981883997"},{"arla":2.98,"cnpj":"","dtNeg":"02/07/2026","gr":"","id":"kmm12","lat":-18.184576824194,"lng":-45.2597510129967,"nome":"COMERCIAL BEIRA RIO LTDA","obs":"","ref":"SAO GONCALO DO ABAETE - MG","s10":6.4,"s500":6.14,"tel":"3888017351"},{"arla":3.48,"cnpj":"","dtNeg":"03/07/2026","gr":"","id":"kmm13","lat":-8.33453603622485,"lng":-36.1365631210765,"nome":"R L C COMBUSTIVEIS LTDA","obs":"","ref":"SAO CAETANO - PE","s10":6.63,"s500":null,"tel":"81994087008"},{"arla":2.88,"cnpj":"","dtNeg":"03/07/2026","gr":"","id":"kmm14","lat":-7.20256125384943,"lng":-48.2379484781192,"nome":"REDE K COMBUSTIVEIS LTDA","obs":"","ref":"ARAGUAINA - TO","s10":6.39,"s500":6.14,"tel":"6391067333"},{"arla":3.58,"cnpj":"","dtNeg":"03/07/2026","gr":"","id":"kmm15","lat":-8.0367611049364,"lng":-50.0664976447021,"nome":"REDE DE POSTOS MARAJO REDENCAO LTDA","obs":"","ref":"REDENCAO - PA","s10":6.46,"s500":6.38,"tel":"6281760472"},{"arla":2.98,"cnpj":"","dtNeg":"05/07/2026","gr":"","id":"kmm16","lat":-16.5112704083587,"lng":-54.6489539516487,"nome":"POSTO MAR DAS PEDRAS LTDA","obs":"","ref":"RONDONOPOLIS - MT","s10":6.48,"s500":6.23,"tel":"6634240058"},{"arla":3.58,"cnpj":"","dtNeg":"27/06/2026","gr":"","id":"kmm17","lat":-1.34009205073286,"lng":-48.24290584984,"nome":"MARAJO BENEVIDES PA","obs":"","ref":"BENEVIDES - PA","s10":6.78,"s500":null,"tel":"6281760472"},{"arla":2.98,"cnpj":"","dtNeg":"03/07/2026","gr":"","id":"kmm18","lat":-27.9648578315597,"lng":-51.7929739455895,"nome":"MP POSTOS E LOGISTICA LTDA SANANDUVA 02 FILIAL 04","obs":"","ref":"SANANDUVA - RS","s10":6.21,"s500":5.95,"tel":"05431968351"},{"arla":2.98,"cnpj":"","dtNeg":"16/05/2026","gr":"","id":"kmm19","lat":-20.1416416886603,"lng":-50.9582705226081,"nome":"POSTO PAULISTAO RUBINEIA LTDA","obs":"","ref":"RUBINEIA - SP","s10":6.68,"s500":6.68,"tel":"1721366460"},{"arla":3.06,"cnpj":"","dtNeg":"02/07/2026","gr":"","id":"kmm20","lat":-20.4565827,"lng":-54.5458835,"nome":"POSTO FORTALEZA - ABASTECEDORA DE COMBUSTIVEL","obs":"","ref":"CAMPO GRANDE - MS","s10":6.27,"s500":5.9,"tel":"67996150104"},{"arla":3.48,"cnpj":"","dtNeg":"04/07/2026","gr":"","id":"kmm21","lat":-16.8408098307966,"lng":-49.2445964418335,"nome":"REDE DE POSTO MARAJO APARECIDA DE GOIANIA","obs":"","ref":"APARECIDA DE GOIANIA - GO","s10":6.43,"s500":6.33,"tel":"6239996262"},{"arla":3.48,"cnpj":"","dtNeg":"28/06/2026","gr":"","id":"kmm22","lat":-14.4304347369518,"lng":-49.1574999599466,"nome":"REDE DE POSTOS DE COMBUSTIVEIS MARAJO URUACU LTDA","obs":"","ref":"URUACU - GO","s10":6.43,"s500":6.33,"tel":"6239996262"},{"arla":2.73,"cnpj":"","dtNeg":"24/06/2026","gr":"","id":"kmm23","lat":-28.6315523920044,"lng":-56.0002209644222,"nome":"POSTO 44 INTERNACIONAL COMERCIO DE COMBUSTIVEIS LTDA","obs":"","ref":"SAO BORJA - RS","s10":6.11,"s500":6.03,"tel":"5599622013"},{"arla":2.98,"cnpj":"","dtNeg":"02/07/2026","gr":"","id":"kmm24","lat":-24.113513716894,"lng":-54.2401429678327,"nome":"POSTO MACEDO GUAIRA LTDA","obs":"","ref":"GUAIRA - PR","s10":6.18,"s500":5.67,"tel":"4435222807"},{"arla":3.58,"cnpj":"","dtNeg":"28/04/2026","gr":"","id":"kmm25","lat":-25.5596250979615,"lng":-49.1497660071058,"nome":"POSTO ALDO SAO JOSE DOS PINHAIS LTDA","obs":"","ref":"SAO JOSE DOS PINHAIS - PR","s10":6.63,"s500":6.63,"tel":"4133815250"},{"arla":2.98,"cnpj":"","dtNeg":"24/06/2026","gr":"","id":"kmm26","lat":-7.26723140970892,"lng":-48.2644912291225,"nome":"REDE DE POSTOS TOCA DA ONCA ARAGUAINA RODOVIA LTDA","obs":"","ref":"ARAGUAINA - TO","s10":6.47,"s500":6.36,"tel":"6392104835"},{"arla":null,"cnpj":"","dtNeg":"","gr":"","id":"kmm27","lat":-33.1283345873994,"lng":-68.3192168646359,"nome":"ESTACION DE SERVICIO ELOY GUERRERO","obs":"","ref":"MENDOZA - EX","s10":null,"s500":null,"tel":"4933214704"},{"arla":null,"cnpj":"","dtNeg":"25/06/2026","gr":"","id":"kmm28","lat":-7.00882931515914,"lng":-41.5989122641791,"nome":"POSTO CORUJAO LTDA","obs":"","ref":"PICOS - PI","s10":6.88,"s500":6.78,"tel":"89994082086"},{"arla":3.04,"cnpj":"","dtNeg":"03/07/2026","gr":"","id":"kmm29","lat":-26.8870942516879,"lng":-48.72440077196,"nome":"SIM REDE - ITAJAI SANTA ROSA","obs":"","ref":"ITAJAI - SC","s10":5.98,"s500":5.88,"tel":"55473249970"},{"arla":3.58,"cnpj":"","dtNeg":"11/04/2026","gr":"","id":"kmm30","lat":-20.2333512590785,"lng":-50.6600111742147,"nome":"AUTO POSTO PAULISTAO URANIA LTDA","obs":"","ref":"URANIA - SP","s10":7.38,"s500":7.58,"tel":"4933214704"},{"arla":2.98,"cnpj":"","dtNeg":"27/06/2026","gr":"","id":"kmm31","lat":-27.0983173842674,"lng":-52.6505515232508,"nome":"COOPERATIVA AGROINDUSTRIAL ALFA","obs":"","ref":"CHAPECO - SC","s10":6.68,"s500":6.78,"tel":"4988137982"},{"arla":3.48,"cnpj":"","dtNeg":"25/06/2026","gr":"","id":"kmm32","lat":-13.5278495568633,"lng":-49.1135705476761,"nome":"REDE DE POSTOS MARAJO PORANGATU LTDA","obs":"","ref":"PORANGATU - GO","s10":6.43,"s500":6.33,"tel":"6239996262"},{"arla":3.98,"cnpj":"","dtNeg":"02/06/2026","gr":"","id":"kmm33","lat":-20.3773947600179,"lng":-40.4480623085583,"nome":"AUTO SERVICO CANAA LTDA","obs":"","ref":"VIANA - ES","s10":6.68,"s500":6.58,"tel":"27999931401"},{"arla":null,"cnpj":"","dtNeg":"05/07/2026","gr":"","id":"kmm34","lat":-22.1170043,"lng":-43.2189459,"nome":"POSTO SOL DA DUTRA LTDA.","obs":"","ref":"TRES RIOS - RJ","s10":6.68,"s500":6.38,"tel":"2433534552"},{"arla":null,"cnpj":"","dtNeg":"19/06/2026","gr":"","id":"kmm35","lat":-15.6998794941202,"lng":-56.0436061777448,"nome":"REDE DE POSTOS DE COMBUSTIVEIS MARAJO GRANDE CUIABA LTDA","obs":"","ref":"CUIABA - MT","s10":6.64,"s500":6.64,"tel":"6239996262"},{"arla":3.88,"cnpj":"","dtNeg":"27/06/2026","gr":"","id":"kmm36","lat":-4.31899268190506,"lng":-41.7798164918523,"nome":"J L CARVALHO DA SILVA ME","obs":"","ref":"PIRIPIRI - PI","s10":6.88,"s500":6.68,"tel":"8934219132"},{"arla":2.98,"cnpj":"","dtNeg":"15/01/2026","gr":"","id":"kmm37","lat":-20.4595622006437,"lng":-49.8688190453883,"nome":"AUTO POSTO SERTANEJO DE VOTUPORANGA LTDA","obs":"","ref":"VOTUPORANGA - SP","s10":5.58,"s500":5.58,"tel":"1734233505"},{"arla":2.98,"cnpj":"","dtNeg":"23/05/2026","gr":"","id":"kmm38","lat":-27.1507120352631,"lng":-52.6218376579497,"nome":"MPS COMERCIO DE COMBUSTIVEIS LTDA CHAPECO FILIAL 38","obs":"","ref":"CHAPECO - SC","s10":6.29,"s500":6.24,"tel":"05431968351"},{"arla":3.08,"cnpj":"","dtNeg":"15/05/2026","gr":"","id":"kmm39","lat":-25.5672981056984,"lng":-49.1681031409471,"nome":"AUTO POSTO JASSA LTDA","obs":"","ref":"CURITIBA - PR","s10":6.54,"s500":6.27,"tel":"4131347400"},{"arla":null,"cnpj":"","dtNeg":"01/07/2026","gr":"","id":"kmm40","lat":-27.0322648532071,"lng":-52.6353114356894,"nome":"NATAL COMERCIO DE COMBUSTIVEIS LTDA","obs":"","ref":"CHAPECO - SC","s10":6.09,"s500":6.09,"tel":"4920209442"},{"arla":3.98,"cnpj":"","dtNeg":"18/06/2026","gr":"","id":"kmm41","lat":-12.7528851265317,"lng":-60.1057018837685,"nome":"Mirian Vilhena Auto Posto Com.Comb.Lubrif.Gas.Cult.Mad. Ltda","obs":"","ref":"VILHENA - RO","s10":6.58,"s500":6.55,"tel":"55693322304"},{"arla":null,"cnpj":"","dtNeg":"","gr":"","id":"kmm42","lat":-31.7961787445295,"lng":-58.3178672881973,"nome":"POSTO UBAJAY","obs":"","ref":"ENTRE RIOS - EX","s10":null,"s500":null,"tel":"54934560252"},{"arla":3.67,"cnpj":"","dtNeg":"29/06/2026","gr":"","id":"kmm43","lat":-22.6650093333564,"lng":-52.871987722677,"nome":"R.A. MAHLE E CIA LTDA","obs":"","ref":"DIAMANTE DO NORTE - PR","s10":6.28,"s500":6.38,"tel":"4231226207"},{"arla":3.68,"cnpj":"","dtNeg":"11/06/2026","gr":"","id":"kmm44","lat":-17.8207368648698,"lng":-51.0023349178047,"nome":"MAHLE RIO VERDE COMERCIO DE COMBUSTIVEIS LTDA","obs":"","ref":"RIO VERDE - GO","s10":6.68,"s500":6.58,"tel":"4231226205"},{"arla":3.14,"cnpj":"","dtNeg":"19/06/2026","gr":"","id":"kmm45","lat":-12.4938553755866,"lng":-49.1171560937199,"nome":"GM PETROLEO EIRELI - EPP","obs":"","ref":"ALVORADA - TO","s10":6.59,"s500":6.23,"tel":"6333531852"},{"arla":3.48,"cnpj":"","dtNeg":"01/06/2026","gr":"","id":"kmm46","lat":-11.8888448748784,"lng":-49.1645480867917,"nome":"REDE DE POSTOS MARAJO CARIRI 2 LTDA","obs":"","ref":"CARIRI DO TOCANTINS - TO","s10":6.58,"s500":6.58,"tel":"6281760472"},{"arla":3.38,"cnpj":"","dtNeg":"30/05/2026","gr":"","id":"kmm47","lat":-4.52641638327672,"lng":-38.3143023886022,"nome":"POSTO MARIANA COMERCIO DE COMBUSTIVEIS LTDA","obs":"","ref":"MORADA NOVA - CE","s10":6.73,"s500":null,"tel":"9999999999"},{"arla":2.97,"cnpj":"","dtNeg":"25/06/2026","gr":"","id":"kmm48","lat":-25.4723720888848,"lng":-49.6688007897128,"nome":"POSTO MAR DAS PEDRAS LTDA","obs":"","ref":"BALSA NOVA - PR","s10":6.29,"s500":5.68,"tel":"49999681033"},{"arla":2.98,"cnpj":"","dtNeg":"05/07/2026","gr":"","id":"kmm49","lat":-18.8930246183967,"lng":-48.4187587031997,"nome":"DECIO COMERCIO E SERVICOS RODOVIARIOS LTDA","obs":"","ref":"UBERLANDIA - MG","s10":6.43,"s500":6.43,"tel":"4999999999"},{"arla":3.98,"cnpj":"","dtNeg":"22/06/2026","gr":"","id":"kmm50","lat":-6.93945441436375,"lng":-38.7209411533073,"nome":"COMERCIO DE COMBUSTIVEIS CACHOEIRA LTDA","obs":"","ref":"CACHOEIRA DOS INDIOS - PB","s10":6.84,"s500":6.78,"tel":"8335581025"},{"arla":3.59,"cnpj":"","dtNeg":"04/07/2026","gr":"","id":"kmm51","lat":-20.6619377835429,"lng":-54.5620476742983,"nome":"POSTO RODOVANA LTDA","obs":"","ref":"CAMPO GRANDE - MS","s10":6.48,"s500":6.18,"tel":"6733934466"},{"arla":3.28,"cnpj":"","dtNeg":"02/07/2026","gr":"","id":"kmm52","lat":-22.4547369361557,"lng":-44.3021360277808,"nome":"POSTO SOL DA DUTRA LTDA","obs":"","ref":"BARRA MANSA - RJ","s10":6.48,"s500":5.98,"tel":"2474026072"},{"arla":3.48,"cnpj":"","dtNeg":"26/06/2026","gr":"","id":"kmm53","lat":-17.8584539333611,"lng":-50.7527842625578,"nome":"REDE DE POSTOS MARAJO RIO VERDE LTDA","obs":"","ref":"RIO VERDE - GO","s10":6.48,"s500":6.46,"tel":"6239996262"},{"arla":3.48,"cnpj":"","dtNeg":"21/06/2026","gr":"","id":"kmm54","lat":-12.5602127656596,"lng":-39.4707069766499,"nome":"MACAUBENSE COMERCIO DE DERIVADOS DE PETROLEO LTDA","obs":"","ref":"RAFAEL JAMBEIRO - BA","s10":7.08,"s500":7.03,"tel":"77999998783"},{"arla":3.68,"cnpj":"","dtNeg":"08/06/2026","gr":"","id":"kmm55","lat":-15.9503980530732,"lng":-54.9813950932524,"nome":"REDE DE POSTOS MARAJO JACIARA LTDA","obs":"","ref":"JACIARA - MT","s10":6.34,"s500":6.34,"tel":"6239996262"},{"arla":3.68,"cnpj":"","dtNeg":"01/07/2026","gr":"","id":"kmm56","lat":-25.1792662579242,"lng":-50.0981798187205,"nome":"TORRE ALTA COM DE COMB LTDA","obs":"","ref":"PONTA GROSSA - PR","s10":6.28,"s500":6.58,"tel":"4232293311"},{"arla":3.48,"cnpj":"","dtNeg":"27/06/2026","gr":"","id":"kmm57","lat":-19.8485277505532,"lng":-48.9641162731207,"nome":"AUTO POSTO MARAJO FRUTAL LTDA","obs":"Renato","ref":"FRUTAL - MG","s10":6.43,"s500":6.38,"tel":"62981760472"},{"arla":2.98,"cnpj":"","dtNeg":"30/06/2026","gr":"","id":"kmm58","lat":-20.5130870310003,"lng":-48.6025399450272,"nome":"GUERRA COMERCIO DE PETROLEO LTDA","obs":"","ref":"BARRETOS - SP","s10":7.18,"s500":6.28,"tel":"1733281662"},{"arla":2.98,"cnpj":"","dtNeg":"03/06/2026","gr":"","id":"kmm59","lat":-27.8737788150783,"lng":-52.2224325336477,"nome":"MPS COMERCIO DE COMBUSTIVEIS LTDA CADORIN FILIAL 20","obs":"","ref":"GETULIO VARGAS - RS","s10":6.21,"s500":5.49,"tel":"05431968351"},{"arla":null,"cnpj":"","dtNeg":"19/06/2026","gr":"","id":"kmm60","lat":-22.8146761481614,"lng":-43.3281269884553,"nome":"POSTO GIGANTE DA DUTRA LTDA","obs":"","ref":"RIO DE JANEIRO - RJ","s10":7.08,"s500":6.88,"tel":"2130148213"},{"arla":null,"cnpj":"","dtNeg":"01/07/2026","gr":"","id":"kmm61","lat":-8.17719894748098,"lng":-34.9489797293326,"nome":"POSTO SUL LTDA","obs":"","ref":"JABOATAO DOS GUARARAPES - PE","s10":6.68,"s500":null,"tel":"8121192772"},{"arla":3.48,"cnpj":"","dtNeg":"05/07/2026","gr":"","id":"kmm62","lat":-7.72693620423931,"lng":-48.4447657943605,"nome":"REDE DE POSTOS MARAJO TOCANTINS LTDA","obs":"","ref":"NOVA OLINDA - TO","s10":6.39,"s500":6.39,"tel":"6239996262"},{"arla":3.28,"cnpj":"","dtNeg":"01/07/2026","gr":"","id":"kmm63","lat":-22.9087452386006,"lng":-45.3165120518691,"nome":"POSTO ARCO IRIS DE ROSEIRA LTDA","obs":"","ref":"ROSEIRA - SP","s10":6.58,"s500":6.32,"tel":"1236469296"},{"arla":3.04,"cnpj":"","dtNeg":"15/04/2026","gr":"","id":"kmm64","lat":-27.6760385984439,"lng":-52.2909796849984,"nome":"SIM REDE DE POSTOS LTDA - ERECHIM FRINAPE","obs":"","ref":"ERECHIM - RS","s10":6.69,"s500":6.63,"tel":"5499313575"},{"arla":null,"cnpj":"","dtNeg":"18/04/2026","gr":"","id":"kmm65","lat":-3.66772366596668,"lng":-38.9799988774455,"nome":"POSTO UMARITUBA LTDA","obs":"","ref":"SAO GONCALO DO AMARANTE - CE","s10":6.78,"s500":null,"tel":"4933221168"},{"arla":2.98,"cnpj":"","dtNeg":"21/06/2026","gr":"","id":"kmm66","lat":-21.1019185852771,"lng":-47.786834845173,"nome":"POSTO DO TREVO LTDA","obs":"","ref":"RIBEIRAO PRETO - SP","s10":7.19,"s500":7.24,"tel":"16361500881"},{"arla":3.88,"cnpj":"","dtNeg":"02/07/2026","gr":"","id":"kmm67","lat":-5.36358671613375,"lng":-42.6747192832798,"nome":"J L CARVALHO DA SILVA EIRELI ME","obs":"","ref":"DEMERVAL LOBAO - PI","s10":6.88,"s500":6.78,"tel":"8698539696"},{"arla":null,"cnpj":"","dtNeg":"","gr":"","id":"kmm68","lat":-39.1166924475629,"lng":-66.9290020225846,"nome":"ESTACION YPF - RIO SALADO CHICHINALES","obs":"","ref":"CHICHINALES - EX","s10":null,"s500":null,"tel":"4933214704"},{"arla":3.98,"cnpj":"","dtNeg":"01/07/2026","gr":"","id":"kmm69","lat":-11.8199528220486,"lng":-55.4833595989892,"nome":"J.D. COMERCIO DE COMBUSTIVEIS LTDA","obs":"","ref":"SINOP - MT","s10":6.73,"s500":6.39,"tel":"4635471150"},{"arla":2.78,"cnpj":"","dtNeg":"30/04/2026","gr":"","id":"kmm70","lat":-28.056196928729,"lng":-51.8420152300043,"nome":"COM DE COMB IBIACA LTDA","obs":"","ref":"IBIACA - RS","s10":6.6,"s500":5.58,"tel":"05433741116"},{"arla":null,"cnpj":"","dtNeg":"01/07/2026","gr":"","id":"kmm71","lat":-11.2690723,"lng":-57.4927291,"nome":"AUTO POSTO BANDEIRANTES COMERCIO DE COMBUSTIVEIS LTDA","obs":"","ref":"JUARA - MT","s10":7.24,"s500":7.07,"tel":"06635565145"},{"arla":3.37,"cnpj":"","dtNeg":"20/06/2026","gr":"","id":"kmm72","lat":-12.1032613938147,"lng":-45.3335366716099,"nome":"POSTO MACAUBENSE LTDA","obs":"","ref":"BARREIRAS - BA","s10":7.18,"s500":7.14,"tel":"7533311264"},{"arla":3.58,"cnpj":"","dtNeg":"05/07/2026","gr":"","id":"kmm73","lat":-6.10285254248394,"lng":-49.3513085883136,"nome":"REDE DE POSTOS MARAJO ELDORADO DOS CARAJAS LTDA","obs":"","ref":"ELDORADO DOS CARAJAS - PA","s10":6.46,"s500":6.88,"tel":"6239996262"},{"arla":4.07,"cnpj":"","dtNeg":"26/06/2026","gr":"","id":"kmm74","lat":-22.5297906680376,"lng":-44.7516998035122,"nome":"POSTO ESTRELA DA DUTRA LTDA","obs":"","ref":"QUELUZ - SP","s10":6.52,"s500":7.26,"tel":"1231479413"},{"arla":3.98,"cnpj":"","dtNeg":"07/06/2026","gr":"","id":"kmm75","lat":-15.6688289479689,"lng":-55.9546475693365,"nome":"POSTO ALDO CUIABA","obs":"","ref":"CUIABA - MT","s10":6.81,"s500":6.47,"tel":"6536165080"},{"arla":3.48,"cnpj":"","dtNeg":"03/07/2026","gr":"","id":"kmm76","lat":-6.97025898846557,"lng":-48.1004834593915,"nome":"REDE DE POSTOS MARAJO WANDERLANDIA LTDA","obs":"","ref":"WANDERLANDIA - TO","s10":6.39,"s500":6.34,"tel":"6239996262"},{"arla":3.28,"cnpj":"","dtNeg":"11/05/2026","gr":"","id":"kmm77","lat":-21.7983114468862,"lng":-43.4140555824511,"nome":"RODOPOSTO JUIZ DE FORA LTDA","obs":"","ref":"JUIZ DE FORA - MG","s10":6.74,"s500":6.34,"tel":"3232418249"},{"arla":3.48,"cnpj":"","dtNeg":"08/06/2026","gr":"","id":"kmm78","lat":-7.16161824808744,"lng":-48.206706173134,"nome":"BEATRIZ TEIXEIRA LACERDA CAMPOS","obs":"","ref":"ARAGUAINA - TO","s10":6.58,"s500":6.48,"tel":"6392192367"},{"arla":3.79,"cnpj":"","dtNeg":"25/03/2026","gr":"","id":"kmm79","lat":-4.13421123317665,"lng":-38.4797570822185,"nome":"POSTO UMARITUBA LTDA","obs":"","ref":"HORIZONTE - CE","s10":6.88,"s500":null,"tel":"8540059190"},{"arla":3.98,"cnpj":"","dtNeg":"16/06/2026","gr":"","id":"kmm80","lat":-8.7611933,"lng":-63.9004398,"nome":"Mirian Vilhena Auto Posto Com.Comb.Lubrif.Gas.Cult.Mad. Ltda","obs":"","ref":"PORTO VELHO - RO","s10":6.58,"s500":6.71,"tel":"55693733020"},{"arla":3.08,"cnpj":"","dtNeg":"27/06/2026","gr":"","id":"kmm81","lat":-18.570404288212,"lng":-49.1930958547627,"nome":"REDE DE POSTOS MARAJO CENTRALINA LTDA","obs":"","ref":"CENTRALINA - MG","s10":6.43,"s500":6.43,"tel":"6239996262"},{"arla":3.03,"cnpj":"","dtNeg":"24/06/2026","gr":"","id":"kmm82","lat":-29.8263981490074,"lng":-51.3254465265699,"nome":"NOVA SANTA RITA SCUDERIA","obs":"","ref":"NOVA SANTA RITA - RS","s10":6.11,"s500":6.09,"tel":"4933214704"},{"arla":null,"cnpj":"","dtNeg":"","gr":"","id":"kmm83","lat":-23.4363738429441,"lng":-46.785515423973,"nome":"A. P. ANHANGUERA LTDA","obs":"","ref":"SAO PAULO - SP","s10":null,"s500":null,"tel":""},{"arla":3.29,"cnpj":"","dtNeg":"06/06/2026","gr":"","id":"kmm84","lat":-4.31362783971689,"lng":-47.5528213831104,"nome":"AUTO POSTO ITINGA II LTDA","obs":"","ref":"DOM ELISEU - PA","s10":7.16,"s500":5.7,"tel":"9991263421"},{"arla":2.98,"cnpj":"","dtNeg":"19/06/2026","gr":"","id":"kmm85","lat":-27.6347316583292,"lng":-52.3119068601058,"nome":"MPS COMERCIO DE COMBUSTIVEIS LTDA ERECHIM FILIAL 21","obs":"","ref":"ERECHIM - RS","s10":6.21,"s500":5.36,"tel":"05431968351"},{"arla":null,"cnpj":"","dtNeg":"19/03/2026","gr":"","id":"kmm86","lat":-8.09524073882742,"lng":-35.0448291347174,"nome":"VILA ESPERANCA COMERCIO DE COMBUSTIVEIS LTDA","obs":"","ref":"RECIFE - PE","s10":6.78,"s500":null,"tel":"8121192772"},{"arla":null,"cnpj":"","dtNeg":"01/05/2026","gr":"","id":"kmm87","lat":-21.6349524121229,"lng":-43.4397853744798,"nome":"RODO POSTO SILVIO S LTDA","obs":"","ref":"JUIZ DE FORA - MG","s10":6.88,"s500":6.43,"tel":"3232220688"},{"arla":3.58,"cnpj":"","dtNeg":"26/03/2026","gr":"","id":"kmm88","lat":-8.09599024144785,"lng":-39.5860694170772,"nome":"COMERCIO DE COMBUSTIVEIS PARNAMIRIM LTDA ME","obs":"","ref":"PARNAMIRIM - PE","s10":7.18,"s500":null,"tel":"8335312218"},{"arla":null,"cnpj":"","dtNeg":"","gr":"","id":"kmm89","lat":-32.8398609156074,"lng":-70.5443313413271,"nome":"ESTACION DE SERVICIOS DIGESA LIMITADA","obs":"","ref":"LOS ANDES - EX","s10":null,"s500":null,"tel":"4933214704"},{"arla":3.48,"cnpj":"","dtNeg":"04/07/2026","gr":"","id":"kmm90","lat":-10.2126982959389,"lng":-48.8743822900809,"nome":"REDE DE POSTOS COMERCIO DE COMBUSTIVEIS MARAJO PARAISO DO TO","obs":"","ref":"PARAISO DO TOCANTINS - TO","s10":6.44,"s500":6.44,"tel":"6239996262"},{"arla":2.98,"cnpj":"","dtNeg":"01/07/2026","gr":"","id":"kmm91","lat":-27.8702138075112,"lng":-52.2253962864017,"nome":"MP POSTOS E LOGISTICA LTDA GETULIO VARGAS FILIAL 14","obs":"","ref":"GETULIO VARGAS - RS","s10":6,"s500":6.16,"tel":"05431968351"},{"arla":3.18,"cnpj":"","dtNeg":"29/06/2026","gr":"","id":"kmm92","lat":-25.4974286218943,"lng":-53.5986376775464,"nome":"ELIZABETE KLEIN DE CARLI CIA LTDA","obs":"","ref":"CAPITAO LEONIDAS MARQUES - PR","s10":5.73,"s500":5.83,"tel":"4635471150"},{"arla":3.68,"cnpj":"","dtNeg":"28/04/2026","gr":"","id":"kmm93","lat":-23.0766954308635,"lng":-52.4156714618521,"nome":"MAHLE MERCEDES COMERCIO DE COMBUSTIVEIS LTDA","obs":"","ref":"PARANAVAI - PR","s10":6.78,"s500":6.58,"tel":"4231226287"},{"arla":2.98,"cnpj":"","dtNeg":"01/08/2025","gr":"","id":"kmm94","lat":-15.9311904371946,"lng":-55.0222382812562,"nome":"JCR O STRADEIRO COMERCIO DE PRODUTOS LTDA","obs":"","ref":"JACIARA - MT","s10":null,"s500":null,"tel":"66999016162"},{"arla":2.98,"cnpj":"","dtNeg":"02/07/2026","gr":"","id":"kmm95","lat":-17.7927534,"lng":-50.9196306,"nome":"DECIO COMERCIO E SERVICOS RODOVIARIOS LTDA","obs":"","ref":"RIO VERDE - GO","s10":6.43,"s500":6.43,"tel":"99999999999"},{"arla":null,"cnpj":"","dtNeg":"09/06/2026","gr":"","id":"kmm96","lat":-20.4594210538837,"lng":-49.8680800841198,"nome":"GDO PARTICIPACOES S/A - AUTO POSTO DUQUE VOTUPORANGA","obs":"","ref":"VOTUPORANGA - SP","s10":6.48,"s500":6.38,"tel":"01727861126"},{"arla":3.54,"cnpj":"","dtNeg":"19/06/2026","gr":"","id":"kmm97","lat":-16.4786911,"lng":-43.491133,"nome":"POSTO CHIMBA LTDA","obs":"","ref":"FRANCISCO SA - MG","s10":6.88,"s500":6.19,"tel":"3832153321"},{"arla":3.98,"cnpj":"","dtNeg":"02/07/2026","gr":"","id":"kmm98","lat":-8.15494843075515,"lng":-34.9463671445796,"nome":"FCJ - COMBUSTIVEIS E CONVENIENCIA LTDA","obs":"","ref":"JABOATAO DOS GUARARAPES - PE","s10":6.76,"s500":null,"tel":"81999890202"},{"arla":null,"cnpj":"","dtNeg":"06/06/2026","gr":"","id":"kmm99","lat":-3.70357530716915,"lng":-39.5726854932524,"nome":"POSTO A+ COMERCIO DE COMBUSTIVEIS LTDA ITAPAJE","obs":"","ref":"ITAPAGE - CE","s10":6.68,"s500":null,"tel":"8991606681"},{"arla":2.74,"cnpj":"","dtNeg":"11/03/2026","gr":"","id":"kmm100","lat":-28.6630284712801,"lng":-55.9328664633023,"nome":"POSTO 44 CAVALHADA COMERCIO DE COMBUSTIVEIS LTDA","obs":"","ref":"SAO BORJA - RS","s10":6.13,"s500":6.05,"tel":"5534310700"},{"arla":3.15,"cnpj":"","dtNeg":"27/04/2026","gr":"","id":"kmm101","lat":-27.0695911750298,"lng":-52.6228539587605,"nome":"COOP (MISTA) DOS TRANSP E OUTROS DO OESTE CATAR","obs":"","ref":"CHAPECO - SC","s10":5.82,"s500":6.71,"tel":"4933240296"},{"arla":null,"cnpj":"","dtNeg":"30/06/2026","gr":"","id":"kmm102","lat":-9.9006228653703,"lng":-56.0845818,"nome":"CASAGRANDA DERIVADOS DE PETROLEO LTDA","obs":"","ref":"ALTA FLORESTA - MT","s10":7.35,"s500":6.91,"tel":"66984467730"},{"arla":3.28,"cnpj":"","dtNeg":"12/06/2026","gr":"","id":"kmm103","lat":-21.1044658885069,"lng":-50.4592624306979,"nome":"AUTO POSTO JUMBO JET PETROLEO LTDA","obs":"","ref":"ARACATUBA - SP","s10":6.68,"s500":6.28,"tel":"1836245000"},{"arla":3.48,"cnpj":"","dtNeg":"13/06/2026","gr":"","id":"kmm104","lat":-23.3656800214275,"lng":-51.4051341403981,"nome":"MAHLE GRANDE PARADA COM DE COMB. LTDA","obs":"","ref":"ARAPONGAS - PR","s10":6.68,"s500":5.63,"tel":"4231226208"},{"arla":null,"cnpj":"","dtNeg":"27/05/2026","gr":"","id":"kmm105","lat":-29.7754364586955,"lng":-57.0399963861719,"nome":"SIM REDE DE POSTOS LTDA - URUGUAIANA BR290","obs":"","ref":"URUGUAIANA - RS","s10":6.21,"s500":6.19,"tel":"5534114318"},{"arla":null,"cnpj":"","dtNeg":"14/05/2026","gr":"","id":"kmm106","lat":-27.5293155024296,"lng":-48.6320879142216,"nome":"POSTO MAR DAS PEDRAS LTDA","obs":"","ref":"BIGUACU - SC","s10":6.38,"s500":6.32,"tel":"49999188382"},{"arla":3.03,"cnpj":"","dtNeg":"12/06/2026","gr":"","id":"kmm107","lat":-28.5071196,"lng":-50.941176,"nome":"SIM REDE - VACARIA MONTE CLARO","obs":"","ref":"VACARIA - RS","s10":6.11,"s500":6.08,"tel":"555432329665"},{"arla":null,"cnpj":"","dtNeg":"03/06/2026","gr":"","id":"kmm108","lat":-2.62732073833871,"lng":-44.2624132131691,"nome":"LIMA COMERCIAL DE COMBUSTIVEIS LTDA","obs":"","ref":"SAO LUIS - MA","s10":7.08,"s500":5.56,"tel":"9889109628"},{"arla":null,"cnpj":"","dtNeg":"30/06/2026","gr":"","id":"kmm109","lat":-18.4802056399393,"lng":-49.1892026243137,"nome":"REDE DE POSTOS MARAJO ARAPORA LTDA","obs":"","ref":"ARAPORA - MG","s10":6.43,"s500":6.33,"tel":"6239996262"},{"arla":null,"cnpj":"","dtNeg":"","gr":"","id":"kmm110","lat":-24.6513603900531,"lng":-47.942108809007,"nome":"POSTO 4 IRMAOS JL LTDA","obs":"","ref":"JACUPIRANGA - SP","s10":null,"s500":null,"tel":"1338646450"},{"arla":3.58,"cnpj":"","dtNeg":"25/06/2026","gr":"","id":"kmm111","lat":-25.5596867830329,"lng":-49.1498353473076,"nome":"POSTO ALDO SAO JOSE DOS PINHAIS LTDA","obs":"","ref":"SAO JOSE DOS PINHAIS - PR","s10":6.08,"s500":null,"tel":"4133815250"},{"arla":2.98,"cnpj":"","dtNeg":"26/06/2026","gr":"","id":"kmm112","lat":-26.1796056756313,"lng":-50.9217037658363,"nome":"AUTO POSTO IPIRANGA LTDA","obs":"","ref":"PAULA FREITAS - PR","s10":6.24,"s500":6.34,"tel":"4231355555"},{"arla":2.73,"cnpj":"","dtNeg":"22/06/2026","gr":"","id":"kmm113","lat":-28.4201902671859,"lng":-53.9164067047862,"nome":"POSTO 44 IJUI COMERCIO DE COMBUSTIVEIS LTDA","obs":"","ref":"IJUI - RS","s10":6.16,"s500":6.08,"tel":"5533317500"},{"arla":3.58,"cnpj":"","dtNeg":"26/05/2026","gr":"","id":"kmm114","lat":-7.06575820903135,"lng":-41.5144447674571,"nome":"AMANCIO E PAULO COMERCIO DE COMBUSTIVEL LTDA","obs":"","ref":"PICOS - PI","s10":6.86,"s500":6.96,"tel":"8981326589"},{"arla":2.88,"cnpj":"","dtNeg":"17/06/2026","gr":"","id":"kmm115","lat":-21.6338108163449,"lng":-49.786971671938,"nome":"REBUCCI AUTO POSTO LTDA","obs":"","ref":"GUAICARA - SP","s10":6.94,"s500":6.59,"tel":"14981136566"},{"arla":null,"cnpj":"","dtNeg":"110360.25","gr":"","id":"kmm116","lat":-2.95187484473285,"lng":-47.4470403888411,"nome":"REDE DE POSTOS MARAJO PARAGOMINAS LTDA","obs":"","ref":"PARAGOMINAS - PA","s10":6.78,"s500":5.73,"tel":"4933221168"},{"arla":3.47,"cnpj":"","dtNeg":"27/05/2026","gr":"","id":"kmm117","lat":-10.1466172326675,"lng":-48.88550574277,"nome":"REDE DE POSTOS MARAJO PARAISO DO TOCANTINS LTDA","obs":"","ref":"PARAISO DO TOCANTINS - TO","s10":6.58,"s500":6.58,"tel":"6239996262"},{"arla":3.08,"cnpj":"","dtNeg":"06/06/2026","gr":"","id":"kmm118","lat":-20.3071761951288,"lng":-50.1909991321164,"nome":"POSTO 7 FERNANDOPOLIS LTDA","obs":"","ref":"FERNANDOPOLIS - SP","s10":6.48,"s500":6.16,"tel":"1734655885"},{"arla":null,"cnpj":"","dtNeg":"01/03/2026","gr":"","id":"kmm119","lat":-19.3101506,"lng":-48.9277299,"nome":"POSTO PRATAO LTDA","obs":"","ref":"PRATA - MG","s10":5.74,"s500":5.64,"tel":"3434318800"},{"arla":null,"cnpj":"","dtNeg":"16/06/2026","gr":"","id":"kmm120","lat":-24.9899955310994,"lng":-53.5086128085785,"nome":"AUTO POSTO PRA FRENTE BRASIL LTDA 01","obs":"","ref":"CASCAVEL - PR","s10":6.52,"s500":6.33,"tel":"04532281515"},{"arla":null,"cnpj":"","dtNeg":"17/06/2026","gr":"","id":"kmm121","lat":-29.8593262971517,"lng":-51.2603640451969,"nome":"SIM REDE - NOVA STA RITA PARADOURO","obs":"","ref":"NOVA SANTA RITA - RS","s10":6.11,"s500":6.08,"tel":"55513479102"},{"arla":2.98,"cnpj":"","dtNeg":"03/06/2026","gr":"","id":"kmm122","lat":-27.2505640494153,"lng":-51.9520128112476,"nome":"POSTO MAR DAS PEDRAS LTDA","obs":"","ref":"CONCORDIA - SC","s10":6.33,"s500":6.31,"tel":"49999513635"},{"arla":null,"cnpj":"","dtNeg":"","gr":"","id":"kmm123","lat":-35.6572131962895,"lng":-61.4012996052393,"nome":"ESTACION DE SERVICIO LOS PRIMOS AGREOCOM S.A.","obs":"","ref":"CARLOS CASARES - EX","s10":null,"s500":null,"tel":"4933214704"},{"arla":2.98,"cnpj":"","dtNeg":"04/06/2026","gr":"","id":"kmm124","lat":-18.5392821,"lng":-49.1932023,"nome":"DECIO COMERCIO E SERVICOS RODOVIARIOS LTDA","obs":"","ref":"CENTRALINA - MG","s10":6.48,"s500":6.48,"tel":"3432679200"},{"arla":3.08,"cnpj":"","dtNeg":"09/06/2026","gr":"","id":"kmm125","lat":null,"lng":null,"nome":"POSTO 7 AMERICANA LTDA","obs":"","ref":"AMERICANA - SP","s10":6.48,"s500":6.16,"tel":"01934651225"},{"arla":3.78,"cnpj":"","dtNeg":"21/06/2026","gr":"","id":"kmm126","lat":-24.1993090163156,"lng":-54.2024174999683,"nome":"AUTO POSTO PRA FRENTE BRASIL LTDA 16","obs":"","ref":"GUAIRA - PR","s10":6.43,"s500":null,"tel":"4532281515"},{"arla":null,"cnpj":"","dtNeg":"06/09/2025","gr":"","id":"kmm127","lat":-23.4591462383118,"lng":-51.9916149897717,"nome":"POSTO ALDO MARINGA LTDA","obs":"","ref":"MARINGA - PR","s10":5.81,"s500":5.74,"tel":"4133815250"},{"arla":null,"cnpj":"","dtNeg":"06/06/2026","gr":"","id":"kmm128","lat":-24.6236552947998,"lng":-47.8953533079523,"nome":"AUTO POSTO PETROPEN","obs":"","ref":"PARIQUERA-ACU - SP","s10":6.88,"s500":6.78,"tel":"1338561410"},{"arla":2.98,"cnpj":"","dtNeg":"17/06/2026","gr":"","id":"kmm129","lat":-19.0145370866566,"lng":-48.208174372409,"nome":"DECIO COMERCIO E SERVICOS RODOVIARIOS LTDA","obs":"","ref":"UBERLANDIA - MG","s10":6.48,"s500":6.58,"tel":"00000000000"},{"arla":2.98,"cnpj":"","dtNeg":"18/06/2026","gr":"","id":"kmm130","lat":-25.4536484648394,"lng":-54.4199685923111,"nome":"POSTO MAR DAS PEDRAS LTDA","obs":"","ref":"SANTA TEREZINHA DE ITAIPU - PR","s10":6.49,"s500":6.19,"tel":"49999187158"},{"arla":null,"cnpj":"","dtNeg":"04/07/2026","gr":"","id":"kmm131","lat":-15.5608341653326,"lng":-47.2576425141269,"nome":"AUTO POSTO FORMOSA LTDA","obs":"","ref":"FORMOSA - GO","s10":6.78,"s500":6.68,"tel":"6136316830"},{"arla":3.28,"cnpj":"","dtNeg":"14/06/2026","gr":"","id":"kmm132","lat":-23.0696786673886,"lng":-49.93321759044,"nome":"AUTO POSTO CONEXAO LTDA","obs":"","ref":"JACAREZINHO - PR","s10":6.4,"s500":5.96,"tel":"4335257786"},{"arla":4.18,"cnpj":"","dtNeg":"16/06/2026","gr":"","id":"kmm133","lat":-12.6015602615433,"lng":-55.7492229021677,"nome":"POSTO ALDO SORRISO LTDA","obs":"","ref":"SORRISO - MT","s10":7.01,"s500":6.91,"tel":"6699956831"},{"arla":3.48,"cnpj":"","dtNeg":"07/06/2026","gr":"","id":"kmm134","lat":-8.36126649610854,"lng":-49.1884866509112,"nome":"REDE DE POSTOS MARAJO COUTO MAGALHAES LTDA","obs":"","ref":"COUTO DE MAGALHAES DE MIN - TO","s10":6.58,"s500":6.58,"tel":"6239996262"},{"arla":3.28,"cnpj":"","dtNeg":"21/06/2026","gr":"","id":"kmm135","lat":-22.45884245,"lng":-44.42497735,"nome":"POSTO SOL DA DUTRA LTDA","obs":"","ref":"RESENDE - RJ","s10":6.68,"s500":6.18,"tel":"2433590710"},{"arla":null,"cnpj":"","dtNeg":"25/05/2026","gr":"","id":"kmm136","lat":-12.1768999321287,"lng":-38.9660576284687,"nome":"JMF COMERCIO DE COMBUSTIVEIS LTDA - PSG3","obs":"","ref":"FEIRA DE SANTANA - BA","s10":7.6,"s500":null,"tel":"7532261302"},{"arla":null,"cnpj":"","dtNeg":"20/06/2026","gr":"","id":"kmm137","lat":-24.8782545874931,"lng":-53.5617895711272,"nome":"AUTO POSTO PRA FRENTE BRASIL LTDA 08","obs":"","ref":"CASCAVEL - PR","s10":6.53,"s500":5.93,"tel":"45991559663"},{"arla":3.78,"cnpj":"","dtNeg":"21/06/2026","gr":"","id":"kmm138","lat":-12.1217390900073,"lng":-45.0898944435906,"nome":"POSTO ALDO BARREIRAS LTDA","obs":"","ref":"BARREIRAS - BA","s10":6.98,"s500":7.42,"tel":"99999999999"},{"arla":3.68,"cnpj":"","dtNeg":"26/06/2026","gr":"","id":"kmm139","lat":-24.9506018,"lng":-50.1211358,"nome":"MAHLE CARAMBEI COMERCIO DE COMBUSTIVEIS LTDA","obs":"","ref":"CARAMBEI - PR","s10":6.58,"s500":5.88,"tel":"4231226256"},{"arla":null,"cnpj":"","dtNeg":"01/05/2026","gr":"","id":"kmm140","lat":-7.0999212881045,"lng":-49.9344166060346,"nome":"POSTO CAVALO DE ACO LTDA","obs":"","ref":"XINGUARA - PA","s10":6.88,"s500":null,"tel":"9434261566"},{"arla":3.14,"cnpj":"","dtNeg":"02/06/2026","gr":"","id":"kmm141","lat":-26.8588937957207,"lng":-52.2654178929049,"nome":"REDE RUSSI LTDA - POSTO RUSSI 8","obs":"","ref":"FAXINAL DOS GUEDES - SC","s10":6.28,"s500":6.44,"tel":"4934360886"},{"arla":null,"cnpj":"","dtNeg":"15/06/2026","gr":"","id":"kmm142","lat":-28.876819384732,"lng":-49.4571364206795,"nome":"AUTO POSTO PELANDA PERDIGA O LTDA","obs":"","ref":"MARACAJA - SC","s10":6.08,"s500":5.98,"tel":"4136081226"},{"arla":null,"cnpj":"","dtNeg":"04/06/2026","gr":"","id":"kmm143","lat":-22.3135042,"lng":-49.0554352,"nome":"POSTO SEM LIMITES LTDA","obs":"","ref":"BAURU - SP","s10":6.98,"s500":7.38,"tel":"1432275576"},{"arla":2.98,"cnpj":"","dtNeg":"06/06/2026","gr":"","id":"kmm144","lat":-21.8897195089265,"lng":-51.8506666348776,"nome":"DECIO COMERCIO E SERVICOS RODOVIARIOS LTDA","obs":"","ref":"PRESIDENTE VENCESLAU - SP","s10":6.48,"s500":null,"tel":"00000000000"},{"arla":null,"cnpj":"","dtNeg":"07/05/2026","gr":"","id":"kmm145","lat":-27.2274154858613,"lng":-52.6757880412925,"nome":"AUTO POSTO MS LTDA","obs":"","ref":"CHAPECO - SC","s10":6.98,"s500":5.54,"tel":"49999999999"},{"arla":2.98,"cnpj":"","dtNeg":"25/06/2026","gr":"","id":"kmm146","lat":-18.8213030183809,"lng":-48.248939682109,"nome":"DECIO COMERCIO E SERVICOS RODOVIARIOS LTDA","obs":"","ref":"UBERLANDIA - MG","s10":6.48,"s500":null,"tel":"49999999999"},{"arla":null,"cnpj":"","dtNeg":"12/06/2026","gr":"","id":"kmm147","lat":-20.9159219680928,"lng":-49.4978334993165,"nome":"AUTO POSTO MACEDAO LTDA","obs":"","ref":"BADY BASSITT - SP","s10":6.43,"s500":null,"tel":"4933214704"},{"arla":null,"cnpj":"","dtNeg":"01/02/2025","gr":"","id":"kmm148","lat":-18.8322824722077,"lng":-41.9888839430687,"nome":"REDE HG COMBUSTIVEIS LTDA","obs":"","ref":"GOVERNADOR VALADARES - MG","s10":6.18,"s500":6.1,"tel":"3321022121"},{"arla":3.08,"cnpj":"","dtNeg":"30/04/2026","gr":"","id":"kmm149","lat":-22.7787277904708,"lng":-47.2322288743611,"nome":"POSTO 7 CHEROKEE LTDA","obs":"","ref":"NOVA ODESSA - SP","s10":6.58,"s500":null,"tel":"99999999999"},{"arla":null,"cnpj":"","dtNeg":"","gr":"","id":"kmm150","lat":-9.4312697,"lng":-40.5078709,"nome":"AUTO POSTO GRANDE RIO LTDA","obs":"","ref":"JUAZEIRO - BA","s10":null,"s500":null,"tel":"7436146074"},{"arla":null,"cnpj":"","dtNeg":"23/06/2026","gr":"","id":"kmm151","lat":-20.862630724842,"lng":-51.4232167032355,"nome":"GDO PARTICIPACOES S/A - AUTO POSTO DUQUE ANDRADINA","obs":"","ref":"ANDRADINA - SP","s10":6.48,"s500":6.38,"tel":"11000000000"},{"arla":2.94,"cnpj":"","dtNeg":"08/08/2025","gr":"","id":"kmm152","lat":null,"lng":null,"nome":"AUTO POSTO PARASAO","obs":"","ref":"REDENCAO - PA","s10":5.74,"s500":null,"tel":"9191899122"},{"arla":null,"cnpj":"","dtNeg":"09/05/2026","gr":"","id":"kmm153","lat":-7.17305880717097,"lng":-34.8978450825086,"nome":"ARLINDO DA FONSECA LINS & CIA LTDA","obs":"","ref":"JOAO PESSOA - PB","s10":6.78,"s500":null,"tel":"8121192772"},{"arla":null,"cnpj":"","dtNeg":"","gr":"","id":"kmm154","lat":-12.6849332997211,"lng":-39.679004282985,"nome":"REDE HG COMBUSTIVEIS LTDA","obs":"","ref":"ITATIM - BA","s10":null,"s500":null,"tel":"7534522548"},{"arla":2.98,"cnpj":"","dtNeg":"16/04/2026","gr":"","id":"kmm155","lat":-12.3902925222103,"lng":-49.132835830738,"nome":"IPANEMA DERIVADOS DE PETROLEO LTDA-EPP","obs":"","ref":"ALVORADA - TO","s10":6.94,"s500":null,"tel":"6392082772"},{"arla":null,"cnpj":"","dtNeg":"","gr":"","id":"kmm156","lat":null,"lng":null,"nome":"ADELAR SERVICIOS SRL","obs":"","ref":"LAS CATITAS - EX","s10":null,"s500":null,"tel":"55559690895"},{"arla":3.08,"cnpj":"","dtNeg":"20/04/2026","gr":"","id":"kmm157","lat":-26.8903488765345,"lng":-48.713310713995,"nome":"POSTO MAR DAS PEDRAS LTDA","obs":"","ref":"ITAJAI - SC","s10":6.78,"s500":6.68,"tel":"49999286703"},{"arla":3.18,"cnpj":"","dtNeg":"02/07/2026","gr":"","id":"kmm158","lat":-20.0173948,"lng":-44.2248674,"nome":"MG - REDE DOM PEDRO DE POSTOS LTDA (DP BETIM 1)","obs":"","ref":"BETIM - MG","s10":6.68,"s500":6.48,"tel":"3135312845"},{"arla":3.48,"cnpj":"","dtNeg":"06/05/2026","gr":"","id":"kmm159","lat":-9.35184577975886,"lng":-48.5422914978411,"nome":"REDE DE POSTOS MARAJO RIO DOS BOIS LTDA","obs":"","ref":"RIO DOS BOIS - TO","s10":6.68,"s500":null,"tel":"4933214777"},{"arla":null,"cnpj":"","dtNeg":"","gr":"","id":"kmm160","lat":-19.5470474124969,"lng":-40.1652865995728,"nome":"REDE HG COMBUSTIVEIS LTDA","obs":"","ref":"LINHARES - ES","s10":null,"s500":null,"tel":"3321022102"},{"arla":null,"cnpj":"","dtNeg":"","gr":"","id":"kmm161","lat":-19.8400064453573,"lng":-43.198212701743,"nome":"RODO POSTO MARFIM LTDA","obs":"","ref":"JOAO MONLEVADE - MG","s10":null,"s500":null,"tel":"3138525393"},{"arla":3.53,"cnpj":"","dtNeg":"16/04/2026","gr":"","id":"kmm162","lat":-8.09279,"lng":-39.56413,"nome":"AUTO POSTO RAUL LINS LTDA","obs":"","ref":"PARNAMIRIM - PE","s10":7.18,"s500":null,"tel":"8738831028"},{"arla":3.08,"cnpj":"","dtNeg":"26/08/2025","gr":"","id":"kmm163","lat":-20.7168856875396,"lng":-49.5905541103839,"nome":"MONTE CARLO E CONVENIENCIA BALSAMO LTDA","obs":"","ref":"BALSAMO - SP","s10":5.67,"s500":5.64,"tel":"4933214704"},{"arla":3.08,"cnpj":"","dtNeg":"27/05/2026","gr":"","id":"kmm164","lat":-21.4768864773307,"lng":-50.0822138202427,"nome":"POSTO 7 PENPOLIS LTDA","obs":"","ref":"PENAPOLIS - SP","s10":6.58,"s500":6.16,"tel":"18991144148"},{"arla":3.18,"cnpj":"","dtNeg":"24/03/2026","gr":"","id":"kmm165","lat":-21.2575097024279,"lng":-50.4175017326757,"nome":"AUTO POSTO CACIQUE II LTDA","obs":"","ref":"ARACATUBA - SP","s10":7.68,"s500":null,"tel":"01899748405"},{"arla":3.48,"cnpj":"","dtNeg":"29/05/2026","gr":"","id":"kmm166","lat":-14.5418171852179,"lng":-49.1614586101292,"nome":"REDE DE POSTOS TOCA DA ONCA URUACU LTDA","obs":"","ref":"URUACU - GO","s10":6.58,"s500":6.08,"tel":"6392104835"},{"arla":3.48,"cnpj":"","dtNeg":"03/07/2026","gr":"","id":"kmm167","lat":null,"lng":null,"nome":"REDE DE POSTOS MARAJO BRASILANDIA LTDA","obs":"","ref":"BRASILANDIA DO TOCANTINS - TO","s10":6.44,"s500":null,"tel":"6239996262"},{"arla":null,"cnpj":"","dtNeg":"21/05/2026","gr":"","id":"kmm168","lat":null,"lng":null,"nome":"AUTO POSTO PELANDA LTDA.","obs":"","ref":"FAZENDA RIO GRANDE - PR","s10":6.64,"s500":6.34,"tel":"4136341112"},{"arla":null,"cnpj":"","dtNeg":"19/06/2026","gr":"","id":"kmm169","lat":-24.8795832846072,"lng":-53.5594021051613,"nome":"AUTO POSTO PRA FRENTE BRASIL LTDA 07","obs":"","ref":"CASCAVEL - PR","s10":6.53,"s500":null,"tel":"45991422094"},{"arla":2.99,"cnpj":"","dtNeg":"28/05/2026","gr":"","id":"kmm170","lat":-12.6927141818495,"lng":-39.69905884973,"nome":"REDE HG COMBUSTIVEIS LTDA","obs":"","ref":"ITATIM - BA","s10":7.18,"s500":7.08,"tel":"7534522323"},{"arla":null,"cnpj":"","dtNeg":"10/03/2026","gr":"","id":"kmm171","lat":-9.53106838321505,"lng":-48.5945000728801,"nome":"AUTO POSTO PRATAO MIRANORTE LTDA","obs":"","ref":"MIRANORTE - TO","s10":7.08,"s500":6.97,"tel":"6333551561"},{"arla":2.99,"cnpj":"","dtNeg":"13/05/2026","gr":"","id":"kmm172","lat":-29.1483618542363,"lng":-54.8878406722554,"nome":"SIM REDE DE POSTOS LTDA - SANTIAGO BR 287","obs":"","ref":"SANTIAGO - RS","s10":6.39,"s500":6.34,"tel":"55549931357"},{"arla":null,"cnpj":"","dtNeg":"","gr":"","id":"kmm173","lat":-21.652347837612,"lng":-43.4338175977691,"nome":"REDE DOM PEDRO DE POSTOS LTDA","obs":"","ref":"JUIZ DE FORA - MG","s10":null,"s500":null,"tel":"2125644257"},{"arla":3.89,"cnpj":"","dtNeg":"05/05/2026","gr":"","id":"kmm174","lat":-8.79978857085663,"lng":-35.6263240745719,"nome":"POSTO QUARTO DE MILHA LTDA","obs":"","ref":"XEXEU - PE","s10":6.68,"s500":null,"tel":"8121192772"},{"arla":3.48,"cnpj":"","dtNeg":"17/05/2026","gr":"","id":"kmm175","lat":-17.0427914774855,"lng":-49.225955527501,"nome":"REDE DE POSTOS MARAJO HIDROLANDIA LTDA","obs":"","ref":"HIDROLANDIA - GO","s10":6.58,"s500":6.58,"tel":"6239996262"},{"arla":3.48,"cnpj":"","dtNeg":"02/06/2026","gr":"","id":"kmm176","lat":-18.7397729431138,"lng":-49.0967333023933,"nome":"REDE DE POSTOS MARAJO CANAPOLIS LTDA","obs":"","ref":"CANAPOLIS - MG","s10":6.68,"s500":6.68,"tel":"6239996262"},{"arla":3.08,"cnpj":"","dtNeg":"10/07/2025","gr":"","id":"kmm177","lat":-19.4021415,"lng":-40.0670118,"nome":"POSTO PARADAO DA 101 LTDA","obs":"","ref":"LINHARES - ES","s10":5.83,"s500":6.06,"tel":"27996538008"},{"arla":null,"cnpj":"","dtNeg":"03/06/2026","gr":"","id":"kmm178","lat":-29.0504736607686,"lng":-51.1934509220763,"nome":"SIM REDE DE POSTOS LTDA - FLORES PEROLA","obs":"","ref":"FLORES DA CUNHA - RS","s10":null,"s500":6.19,"tel":"5432921032"},{"arla":null,"cnpj":"","dtNeg":"","gr":"","id":"kmm179","lat":-27.8065993430956,"lng":-52.7896724077598,"nome":"MP POSTOS E LOGISTICA LTDA RONDA ALTA FILIAL 15","obs":"","ref":"RONDA ALTA - RS","s10":null,"s500":null,"tel":"05431968351"},{"arla":2.85,"cnpj":"","dtNeg":"10/02/2025","gr":"","id":"kmm180","lat":-26.5539961671523,"lng":-48.7199117962128,"nome":"EDEMAR RUSSI CIA LTDA - POSTO RUSSI 6","obs":"","ref":"ARAQUARI - SC","s10":6.04,"s500":6.03,"tel":"4735115990"}]